<?xml version="1.0" encoding="UTF-8"?>
<kml xmlns="http://www.opengis.net/kml/2.2">
<Document>
<name>Gillespie et al. (2008)</name>
<description>
<![CDATA[
Data from expage-202306<br/><br/>
<a href="http://expage.github.io/">expage.github.io</a>
]]>
</description>
<Style id="bedrock">
<IconStyle>
<color>ff0000ff</color>
<colorMode>normal</colorMode>
<scale>1</scale>
<Icon>
<href>http://maps.google.com/mapfiles/kml/shapes/shaded_dot.png</href>
</Icon>
</IconStyle>
<BalloonStyle>
<text><![CDATA[<b><font size='4'>$[name]</font></b><br/><br/><u>LSD age (yr)</u><br/>$[description]]]></text>
</BalloonStyle>
</Style>
<Style id="boulder">
<IconStyle>
<color>ff00ffff</color>
<colorMode>normal</colorMode>
<scale>1</scale>
<Icon>
<href>http://maps.google.com/mapfiles/kml/shapes/shaded_dot.png</href>
</Icon>
</IconStyle>
<BalloonStyle>
<text><![CDATA[<b><font size='4'>$[name]</font></b><br/><br/><u>LSD age (yr)</u><br/>$[description]]]></text>
</BalloonStyle>
</Style>
<Style id="other">
<IconStyle>
<color>ffff0000</color>
<colorMode>normal</colorMode>
<scale>1</scale>
<Icon>
<href>http://maps.google.com/mapfiles/kml/shapes/shaded_dot.png</href>
</Icon>
</IconStyle>
<BalloonStyle>
<text><![CDATA[<b><font size='4'>$[name]</font></b><br/><br/><u>LSD age (yr)</u><br/>$[description]]]></text>
</BalloonStyle>
</Style>

<Placemark>
<name>arg-Tin-01</name>
<description>
<![CDATA[
<sup>10</sup>Be: 20930 &#177; 1406<br/><br/>
<u>Sample</u><br/>boulder<br/><br/>
<u>Publication</u><br/><a href="http://expage.github.io/data/txt/Gillespie-et-al-2008.txt">Gillespie et al. (2008)</a>
]]>
</description>
<styleUrl>#boulder</styleUrl>
<Point>
<coordinates>99.05553,51.47922</coordinates>
</Point>
</Placemark>
<Placemark>
<name>arg-Tin-01b</name>
<description>
<![CDATA[
<sup>10</sup>Be: 23416 &#177; 1555<br/><br/>
<u>Sample</u><br/>boulder<br/><br/>
<u>Publication</u><br/><a href="http://expage.github.io/data/txt/Gillespie-et-al-2008.txt">Gillespie et al. (2008)</a>
]]>
</description>
<styleUrl>#boulder</styleUrl>
<Point>
<coordinates>99.05553,51.47922</coordinates>
</Point>
</Placemark>
<Placemark>
<name>rmb-Tin-01a</name>
<description>
<![CDATA[
<sup>10</sup>Be: 33480 &#177; 2279<br/><br/>
<u>Sample</u><br/>boulder<br/><br/>
<u>Publication</u><br/><a href="http://expage.github.io/data/txt/Gillespie-et-al-2008.txt">Gillespie et al. (2008)</a>
]]>
</description>
<styleUrl>#boulder</styleUrl>
<Point>
<coordinates>99.104,51.565</coordinates>
</Point>
</Placemark>
<Placemark>
<name>rmb-Tin-01c</name>
<description>
<![CDATA[
<sup>10</sup>Be: 27202 &#177; 1814<br/><br/>
<u>Sample</u><br/>boulder<br/><br/>
<u>Publication</u><br/><a href="http://expage.github.io/data/txt/Gillespie-et-al-2008.txt">Gillespie et al. (2008)</a>
]]>
</description>
<styleUrl>#boulder</styleUrl>
<Point>
<coordinates>99.104,51.565</coordinates>
</Point>
</Placemark>
<Placemark>
<name>arg-Uzg-002</name>
<description>
<![CDATA[
<sup>10</sup>Be: 16835 &#177; 1186<br/><br/>
<u>Sample</u><br/>boulder<br/><br/>
<u>Publication</u><br/><a href="http://expage.github.io/data/txt/Gillespie-et-al-2008.txt">Gillespie et al. (2008)</a>
]]>
</description>
<styleUrl>#boulder</styleUrl>
<Point>
<coordinates>99.18910,51.62420</coordinates>
</Point>
</Placemark>
<Placemark>
<name>arg-Uzg-003</name>
<description>
<![CDATA[
<sup>10</sup>Be: 29321 &#177; 2009<br/><br/>
<u>Sample</u><br/>boulder<br/><br/>
<u>Publication</u><br/><a href="http://expage.github.io/data/txt/Gillespie-et-al-2008.txt">Gillespie et al. (2008)</a>
]]>
</description>
<styleUrl>#boulder</styleUrl>
<Point>
<coordinates>99.18910,51.62420</coordinates>
</Point>
</Placemark>
<Placemark>
<name>arg-Gar-Ia-001</name>
<description>
<![CDATA[
<sup>10</sup>Be: 23231 &#177; 1543<br/><br/>
<u>Sample</u><br/>boulder<br/><br/>
<u>Publication</u><br/><a href="http://expage.github.io/data/txt/Gillespie-et-al-2008.txt">Gillespie et al. (2008)</a>
]]>
</description>
<styleUrl>#boulder</styleUrl>
<Point>
<coordinates>99.77220,51.39957</coordinates>
</Point>
</Placemark>
<Placemark>
<name>arg-Gar-Ia-002</name>
<description>
<![CDATA[
<sup>10</sup>Be: 20787 &#177; 1383<br/><br/>
<u>Sample</u><br/>boulder<br/><br/>
<u>Publication</u><br/><a href="http://expage.github.io/data/txt/Gillespie-et-al-2008.txt">Gillespie et al. (2008)</a>
]]>
</description>
<styleUrl>#boulder</styleUrl>
<Point>
<coordinates>99.77220,51.39957</coordinates>
</Point>
</Placemark>
<Placemark>
<name>arg-Gar-Ia-003</name>
<description>
<![CDATA[
<sup>10</sup>Be: 23556 &#177; 1525<br/><br/>
<u>Sample</u><br/>boulder<br/><br/>
<u>Publication</u><br/><a href="http://expage.github.io/data/txt/Gillespie-et-al-2008.txt">Gillespie et al. (2008)</a>
]]>
</description>
<styleUrl>#boulder</styleUrl>
<Point>
<coordinates>99.77220,51.39957</coordinates>
</Point>
</Placemark>
<Placemark>
<name>arg-Gar-Ia-010</name>
<description>
<![CDATA[
<sup>10</sup>Be: 43745 &#177; 2830<br/><br/>
<u>Sample</u><br/>boulder<br/><br/>
<u>Publication</u><br/><a href="http://expage.github.io/data/txt/Gillespie-et-al-2008.txt">Gillespie et al. (2008)</a>
]]>
</description>
<styleUrl>#boulder</styleUrl>
<Point>
<coordinates>99.77220,51.39957</coordinates>
</Point>
</Placemark>
<Placemark>
<name>arg-Gar-Ia-011</name>
<description>
<![CDATA[
<sup>10</sup>Be: 43053 &#177; 3917<br/><br/>
<u>Sample</u><br/>boulder<br/><br/>
<u>Publication</u><br/><a href="http://expage.github.io/data/txt/Gillespie-et-al-2008.txt">Gillespie et al. (2008)</a>
]]>
</description>
<styleUrl>#boulder</styleUrl>
<Point>
<coordinates>99.77220,51.39957</coordinates>
</Point>
</Placemark>
<Placemark>
<name>arg-Gar-Ia-012</name>
<description>
<![CDATA[
<sup>10</sup>Be: 19220 &#177; 1252<br/><br/>
<u>Sample</u><br/>boulder<br/><br/>
<u>Publication</u><br/><a href="http://expage.github.io/data/txt/Gillespie-et-al-2008.txt">Gillespie et al. (2008)</a>
]]>
</description>
<styleUrl>#boulder</styleUrl>
<Point>
<coordinates>99.77220,51.39957</coordinates>
</Point>
</Placemark>
<Placemark>
<name>arg-Gar-Ia-013</name>
<description>
<![CDATA[
<sup>10</sup>Be: 20011 &#177; 1339<br/><br/>
<u>Sample</u><br/>boulder<br/><br/>
<u>Publication</u><br/><a href="http://expage.github.io/data/txt/Gillespie-et-al-2008.txt">Gillespie et al. (2008)</a>
]]>
</description>
<styleUrl>#boulder</styleUrl>
<Point>
<coordinates>99.77220,51.39957</coordinates>
</Point>
</Placemark>
<Placemark>
<name>arg-Gar-IIa-005</name>
<description>
<![CDATA[
<sup>10</sup>Be: 29458 &#177; 1970<br/><br/>
<u>Sample</u><br/>boulder<br/><br/>
<u>Publication</u><br/><a href="http://expage.github.io/data/txt/Gillespie-et-al-2008.txt">Gillespie et al. (2008)</a>
]]>
</description>
<styleUrl>#boulder</styleUrl>
<Point>
<coordinates>99.79990,51.39935</coordinates>
</Point>
</Placemark>
<Placemark>
<name>arg-Gar-IIa-007</name>
<description>
<![CDATA[
<sup>10</sup>Be: 18341 &#177; 1215<br/><br/>
<u>Sample</u><br/>boulder<br/><br/>
<u>Publication</u><br/><a href="http://expage.github.io/data/txt/Gillespie-et-al-2008.txt">Gillespie et al. (2008)</a>
]]>
</description>
<styleUrl>#boulder</styleUrl>
<Point>
<coordinates>99.79990,51.39935</coordinates>
</Point>
</Placemark>
<Placemark>
<name>arg-Gar-IIa-008</name>
<description>
<![CDATA[
<sup>10</sup>Be: 20996 &#177; 1353<br/><br/>
<u>Sample</u><br/>boulder<br/><br/>
<u>Publication</u><br/><a href="http://expage.github.io/data/txt/Gillespie-et-al-2008.txt">Gillespie et al. (2008)</a>
]]>
</description>
<styleUrl>#boulder</styleUrl>
<Point>
<coordinates>99.79990,51.39935</coordinates>
</Point>
</Placemark>
<Placemark>
<name>arg-Huj-01a</name>
<description>
<![CDATA[
<sup>10</sup>Be: 234464 &#177; 18732<br/><br/>
<u>Sample</u><br/>boulder<br/><br/>
<u>Publication</u><br/><a href="http://expage.github.io/data/txt/Gillespie-et-al-2008.txt">Gillespie et al. (2008)</a>
]]>
</description>
<styleUrl>#boulder</styleUrl>
<Point>
<coordinates>99.125,51.006</coordinates>
</Point>
</Placemark>
<Placemark>
<name>arg-Huj-01b</name>
<description>
<![CDATA[
<sup>10</sup>Be: 107287 &#177; 7056<br/><br/>
<u>Sample</u><br/>boulder<br/><br/>
<u>Publication</u><br/><a href="http://expage.github.io/data/txt/Gillespie-et-al-2008.txt">Gillespie et al. (2008)</a>
]]>
</description>
<styleUrl>#boulder</styleUrl>
<Point>
<coordinates>99.125,51.006</coordinates>
</Point>
</Placemark>
<Placemark>
<name>arg-Huj-01c</name>
<description>
<![CDATA[
<sup>10</sup>Be: 136020 &#177; 9006<br/><br/>
<u>Sample</u><br/>boulder<br/><br/>
<u>Publication</u><br/><a href="http://expage.github.io/data/txt/Gillespie-et-al-2008.txt">Gillespie et al. (2008)</a>
]]>
</description>
<styleUrl>#boulder</styleUrl>
<Point>
<coordinates>99.125,51.006</coordinates>
</Point>
</Placemark>
<Placemark>
<name>arg-Huj-02a</name>
<description>
<![CDATA[
<sup>10</sup>Be: 16465 &#177; 1155<br/><br/>
<u>Sample</u><br/>boulder<br/><br/>
<u>Publication</u><br/><a href="http://expage.github.io/data/txt/Gillespie-et-al-2008.txt">Gillespie et al. (2008)</a>
]]>
</description>
<styleUrl>#boulder</styleUrl>
<Point>
<coordinates>99.152,50.981</coordinates>
</Point>
</Placemark>
<Placemark>
<name>arg-Huj-02b</name>
<description>
<![CDATA[
<sup>10</sup>Be: 43891 &#177; 2937<br/><br/>
<u>Sample</u><br/>boulder<br/><br/>
<u>Publication</u><br/><a href="http://expage.github.io/data/txt/Gillespie-et-al-2008.txt">Gillespie et al. (2008)</a>
]]>
</description>
<styleUrl>#boulder</styleUrl>
<Point>
<coordinates>99.152,50.981</coordinates>
</Point>
</Placemark>
<Placemark>
<name>arg-Huj-02c</name>
<description>
<![CDATA[
<sup>10</sup>Be: 28428 &#177; 1975<br/><br/>
<u>Sample</u><br/>boulder<br/><br/>
<u>Publication</u><br/><a href="http://expage.github.io/data/txt/Gillespie-et-al-2008.txt">Gillespie et al. (2008)</a>
]]>
</description>
<styleUrl>#boulder</styleUrl>
<Point>
<coordinates>99.152,50.981</coordinates>
</Point>
</Placemark>
</Document>
</kml>