<?xml version="1.0" encoding="UTF-8"?>
<kml xmlns="http://www.opengis.net/kml/2.2">
<Document>
<name>Gillespie et al. (2008)</name>
<description>
<![CDATA[
<a href="http://expage.github.io/">expage.github.io</a>
]]>
</description>
<Style id="bedrock">
<IconStyle>
<color>ff0000ff</color>
<colorMode>normal</colorMode>
<scale>1</scale>
<Icon>
<href>http://maps.google.com/mapfiles/kml/shapes/shaded_dot.png</href>
</Icon>
</IconStyle>
<BalloonStyle>
<text><![CDATA[<b><font size='4'>$[name]</font></b><br/><br/><u>LSD age (yr)</u><br/>$[description]]]></text>
</BalloonStyle>
</Style>
<Style id="boulder">
<IconStyle>
<color>ff00ffff</color>
<colorMode>normal</colorMode>
<scale>1</scale>
<Icon>
<href>http://maps.google.com/mapfiles/kml/shapes/shaded_dot.png</href>
</Icon>
</IconStyle>
<BalloonStyle>
<text><![CDATA[<b><font size='4'>$[name]</font></b><br/><br/><u>LSD age (yr)</u><br/>$[description]]]></text>
</BalloonStyle>
</Style>
<Style id="other">
<IconStyle>
<color>ffff0000</color>
<colorMode>normal</colorMode>
<scale>1</scale>
<Icon>
<href>http://maps.google.com/mapfiles/kml/shapes/shaded_dot.png</href>
</Icon>
</IconStyle>
<BalloonStyle>
<text><![CDATA[<b><font size='4'>$[name]</font></b><br/><br/><u>LSD age (yr)</u><br/>$[description]]]></text>
</BalloonStyle>
</Style>
<Placemark>
<name>arg-Tin-01</name>
<description>
<![CDATA[
<sup>10</sup>Be: 21007 &#177; 1241<br/><br/>
<u>Sample</u><br/>boulder<br/><br/>
<u>Publication</u><br/>Gillespie et al. (2008)
]]>
</description>
<styleUrl>#boulder</styleUrl>
<Point>
<coordinates>99.05553,51.47922</coordinates>
</Point>
</Placemark>
<Placemark>
<name>arg-Tin-01b</name>
<description>
<![CDATA[
<sup>10</sup>Be: 23564 &#177; 1373<br/><br/>
<u>Sample</u><br/>boulder<br/><br/>
<u>Publication</u><br/>Gillespie et al. (2008)
]]>
</description>
<styleUrl>#boulder</styleUrl>
<Point>
<coordinates>99.05553,51.47922</coordinates>
</Point>
</Placemark>
<Placemark>
<name>rmb-Tin-01a</name>
<description>
<![CDATA[
<sup>10</sup>Be: 33714 &#177; 2025<br/><br/>
<u>Sample</u><br/>boulder<br/><br/>
<u>Publication</u><br/>Gillespie et al. (2008)
]]>
</description>
<styleUrl>#boulder</styleUrl>
<Point>
<coordinates>99.104,51.565</coordinates>
</Point>
</Placemark>
<Placemark>
<name>rmb-Tin-01c</name>
<description>
<![CDATA[
<sup>10</sup>Be: 27427 &#177; 1605<br/><br/>
<u>Sample</u><br/>boulder<br/><br/>
<u>Publication</u><br/>Gillespie et al. (2008)
]]>
</description>
<styleUrl>#boulder</styleUrl>
<Point>
<coordinates>99.104,51.565</coordinates>
</Point>
</Placemark>
<Placemark>
<name>arg-Uzg-002</name>
<description>
<![CDATA[
<sup>10</sup>Be: 16826 &#177; 1057<br/><br/>
<u>Sample</u><br/>boulder<br/><br/>
<u>Publication</u><br/>Gillespie et al. (2008)
]]>
</description>
<styleUrl>#boulder</styleUrl>
<Point>
<coordinates>99.18910,51.62420</coordinates>
</Point>
</Placemark>
<Placemark>
<name>arg-Uzg-003</name>
<description>
<![CDATA[
<sup>10</sup>Be: 29579 &#177; 1793<br/><br/>
<u>Sample</u><br/>boulder<br/><br/>
<u>Publication</u><br/>Gillespie et al. (2008)
]]>
</description>
<styleUrl>#boulder</styleUrl>
<Point>
<coordinates>99.18910,51.62420</coordinates>
</Point>
</Placemark>
<Placemark>
<name>arg-Gar-Ia-001</name>
<description>
<![CDATA[
<sup>10</sup>Be: 23371 &#177; 1361<br/><br/>
<u>Sample</u><br/>boulder<br/><br/>
<u>Publication</u><br/>Gillespie et al. (2008)
]]>
</description>
<styleUrl>#boulder</styleUrl>
<Point>
<coordinates>99.77220,51.39957</coordinates>
</Point>
</Placemark>
<Placemark>
<name>arg-Gar-Ia-002</name>
<description>
<![CDATA[
<sup>10</sup>Be: 20854 &#177; 1218<br/><br/>
<u>Sample</u><br/>boulder<br/><br/>
<u>Publication</u><br/>Gillespie et al. (2008)
]]>
</description>
<styleUrl>#boulder</styleUrl>
<Point>
<coordinates>99.77220,51.39957</coordinates>
</Point>
</Placemark>
<Placemark>
<name>arg-Gar-Ia-003</name>
<description>
<![CDATA[
<sup>10</sup>Be: 23703 &#177; 1335<br/><br/>
<u>Sample</u><br/>boulder<br/><br/>
<u>Publication</u><br/>Gillespie et al. (2008)
]]>
</description>
<styleUrl>#boulder</styleUrl>
<Point>
<coordinates>99.77220,51.39957</coordinates>
</Point>
</Placemark>
<Placemark>
<name>arg-Gar-Ia-010</name>
<description>
<![CDATA[
<sup>10</sup>Be: 44102 &#177; 2478<br/><br/>
<u>Sample</u><br/>boulder<br/><br/>
<u>Publication</u><br/>Gillespie et al. (2008)
]]>
</description>
<styleUrl>#boulder</styleUrl>
<Point>
<coordinates>99.77220,51.39957</coordinates>
</Point>
</Placemark>
<Placemark>
<name>arg-Gar-Ia-011</name>
<description>
<![CDATA[
<sup>10</sup>Be: 43404 &#177; 3696<br/><br/>
<u>Sample</u><br/>boulder<br/><br/>
<u>Publication</u><br/>Gillespie et al. (2008)
]]>
</description>
<styleUrl>#boulder</styleUrl>
<Point>
<coordinates>99.77220,51.39957</coordinates>
</Point>
</Placemark>
<Placemark>
<name>arg-Gar-Ia-012</name>
<description>
<![CDATA[
<sup>10</sup>Be: 19264 &#177; 1095<br/><br/>
<u>Sample</u><br/>boulder<br/><br/>
<u>Publication</u><br/>Gillespie et al. (2008)
]]>
</description>
<styleUrl>#boulder</styleUrl>
<Point>
<coordinates>99.77220,51.39957</coordinates>
</Point>
</Placemark>
<Placemark>
<name>arg-Gar-Ia-013</name>
<description>
<![CDATA[
<sup>10</sup>Be: 20067 &#177; 1180<br/><br/>
<u>Sample</u><br/>boulder<br/><br/>
<u>Publication</u><br/>Gillespie et al. (2008)
]]>
</description>
<styleUrl>#boulder</styleUrl>
<Point>
<coordinates>99.77220,51.39957</coordinates>
</Point>
</Placemark>
<Placemark>
<name>arg-Gar-IIa-005</name>
<description>
<![CDATA[
<sup>10</sup>Be: 29715 &#177; 1746<br/><br/>
<u>Sample</u><br/>boulder<br/><br/>
<u>Publication</u><br/>Gillespie et al. (2008)
]]>
</description>
<styleUrl>#boulder</styleUrl>
<Point>
<coordinates>99.79990,51.39935</coordinates>
</Point>
</Placemark>
<Placemark>
<name>arg-Gar-IIa-007</name>
<description>
<![CDATA[
<sup>10</sup>Be: 18366 &#177; 1067<br/><br/>
<u>Sample</u><br/>boulder<br/><br/>
<u>Publication</u><br/>Gillespie et al. (2008)
]]>
</description>
<styleUrl>#boulder</styleUrl>
<Point>
<coordinates>99.79990,51.39935</coordinates>
</Point>
</Placemark>
<Placemark>
<name>arg-Gar-IIa-008</name>
<description>
<![CDATA[
<sup>10</sup>Be: 21066 &#177; 1180<br/><br/>
<u>Sample</u><br/>boulder<br/><br/>
<u>Publication</u><br/>Gillespie et al. (2008)
]]>
</description>
<styleUrl>#boulder</styleUrl>
<Point>
<coordinates>99.79990,51.39935</coordinates>
</Point>
</Placemark>
<Placemark>
<name>arg-Huj-01a</name>
<description>
<![CDATA[
<sup>10</sup>Be: 239147 &#177; 17346<br/><br/>
<u>Sample</u><br/>boulder<br/><br/>
<u>Publication</u><br/>Gillespie et al. (2008)
]]>
</description>
<styleUrl>#boulder</styleUrl>
<Point>
<coordinates>99.125,51.006</coordinates>
</Point>
</Placemark>
<Placemark>
<name>arg-Huj-01b</name>
<description>
<![CDATA[
<sup>10</sup>Be: 108586 &#177; 6204<br/><br/>
<u>Sample</u><br/>boulder<br/><br/>
<u>Publication</u><br/>Gillespie et al. (2008)
]]>
</description>
<styleUrl>#boulder</styleUrl>
<Point>
<coordinates>99.125,51.006</coordinates>
</Point>
</Placemark>
<Placemark>
<name>arg-Huj-01c</name>
<description>
<![CDATA[
<sup>10</sup>Be: 138091 &#177; 7943<br/><br/>
<u>Sample</u><br/>boulder<br/><br/>
<u>Publication</u><br/>Gillespie et al. (2008)
]]>
</description>
<styleUrl>#boulder</styleUrl>
<Point>
<coordinates>99.125,51.006</coordinates>
</Point>
</Placemark>
<Placemark>
<name>arg-Huj-02a</name>
<description>
<![CDATA[
<sup>10</sup>Be: 16439 &#177; 1027<br/><br/>
<u>Sample</u><br/>boulder<br/><br/>
<u>Publication</u><br/>Gillespie et al. (2008)
]]>
</description>
<styleUrl>#boulder</styleUrl>
<Point>
<coordinates>99.152,50.981</coordinates>
</Point>
</Placemark>
<Placemark>
<name>arg-Huj-02b</name>
<description>
<![CDATA[
<sup>10</sup>Be: 44223 &#177; 2596<br/><br/>
<u>Sample</u><br/>boulder<br/><br/>
<u>Publication</u><br/>Gillespie et al. (2008)
]]>
</description>
<styleUrl>#boulder</styleUrl>
<Point>
<coordinates>99.152,50.981</coordinates>
</Point>
</Placemark>
<Placemark>
<name>arg-Huj-02c</name>
<description>
<![CDATA[
<sup>10</sup>Be: 28654 &#177; 1767<br/><br/>
<u>Sample</u><br/>boulder<br/><br/>
<u>Publication</u><br/>Gillespie et al. (2008)
]]>
</description>
<styleUrl>#boulder</styleUrl>
<Point>
<coordinates>99.152,50.981</coordinates>
</Point>
</Placemark>
</Document>
</kml>