<?xml version="1.0" encoding="UTF-8"?>
<kml xmlns="http://www.opengis.net/kml/2.2">
<Document>
<name>Gillespie et al. (2008)</name>
<description>
<![CDATA[
Data from expage-201711<br/><br/>
<a href="http://expage.github.io/">expage.github.io</a>
]]>
</description>
<Style id="bedrock">
<IconStyle>
<color>ff0000ff</color>
<colorMode>normal</colorMode>
<scale>1</scale>
<Icon>
<href>http://maps.google.com/mapfiles/kml/shapes/shaded_dot.png</href>
</Icon>
</IconStyle>
<BalloonStyle>
<text><![CDATA[<b><font size='4'>$[name]</font></b><br/><br/><u>LSD age (yr)</u><br/>$[description]]]></text>
</BalloonStyle>
</Style>
<Style id="boulder">
<IconStyle>
<color>ff00ffff</color>
<colorMode>normal</colorMode>
<scale>1</scale>
<Icon>
<href>http://maps.google.com/mapfiles/kml/shapes/shaded_dot.png</href>
</Icon>
</IconStyle>
<BalloonStyle>
<text><![CDATA[<b><font size='4'>$[name]</font></b><br/><br/><u>LSD age (yr)</u><br/>$[description]]]></text>
</BalloonStyle>
</Style>
<Style id="other">
<IconStyle>
<color>ffff0000</color>
<colorMode>normal</colorMode>
<scale>1</scale>
<Icon>
<href>http://maps.google.com/mapfiles/kml/shapes/shaded_dot.png</href>
</Icon>
</IconStyle>
<BalloonStyle>
<text><![CDATA[<b><font size='4'>$[name]</font></b><br/><br/><u>LSD age (yr)</u><br/>$[description]]]></text>
</BalloonStyle>
</Style>

<Placemark>
<name>arg-Tin-01</name>
<description>
<![CDATA[
<sup>10</sup>Be: 21009 &#177; 1435<br/><br/>
<u>Sample</u><br/>boulder<br/><br/>
<u>Publication</u><br/>Gillespie et al. (2008)
]]>
</description>
<styleUrl>#boulder</styleUrl>
<Point>
<coordinates>99.05553,51.47922</coordinates>
</Point>
</Placemark>
<Placemark>
<name>arg-Tin-01b</name>
<description>
<![CDATA[
<sup>10</sup>Be: 23570 &#177; 1593<br/><br/>
<u>Sample</u><br/>boulder<br/><br/>
<u>Publication</u><br/>Gillespie et al. (2008)
]]>
</description>
<styleUrl>#boulder</styleUrl>
<Point>
<coordinates>99.05553,51.47922</coordinates>
</Point>
</Placemark>
<Placemark>
<name>rmb-Tin-01a</name>
<description>
<![CDATA[
<sup>10</sup>Be: 33722 &#177; 2334<br/><br/>
<u>Sample</u><br/>boulder<br/><br/>
<u>Publication</u><br/>Gillespie et al. (2008)
]]>
</description>
<styleUrl>#boulder</styleUrl>
<Point>
<coordinates>99.104,51.565</coordinates>
</Point>
</Placemark>
<Placemark>
<name>rmb-Tin-01c</name>
<description>
<![CDATA[
<sup>10</sup>Be: 27433 &#177; 1861<br/><br/>
<u>Sample</u><br/>boulder<br/><br/>
<u>Publication</u><br/>Gillespie et al. (2008)
]]>
</description>
<styleUrl>#boulder</styleUrl>
<Point>
<coordinates>99.104,51.565</coordinates>
</Point>
</Placemark>
<Placemark>
<name>arg-Uzg-002</name>
<description>
<![CDATA[
<sup>10</sup>Be: 16829 &#177; 1204<br/><br/>
<u>Sample</u><br/>boulder<br/><br/>
<u>Publication</u><br/>Gillespie et al. (2008)
]]>
</description>
<styleUrl>#boulder</styleUrl>
<Point>
<coordinates>99.18910,51.62420</coordinates>
</Point>
</Placemark>
<Placemark>
<name>arg-Uzg-003</name>
<description>
<![CDATA[
<sup>10</sup>Be: 29586 &#177; 2061<br/><br/>
<u>Sample</u><br/>boulder<br/><br/>
<u>Publication</u><br/>Gillespie et al. (2008)
]]>
</description>
<styleUrl>#boulder</styleUrl>
<Point>
<coordinates>99.18910,51.62420</coordinates>
</Point>
</Placemark>
<Placemark>
<name>arg-Gar-Ia-001</name>
<description>
<![CDATA[
<sup>10</sup>Be: 23377 &#177; 1580<br/><br/>
<u>Sample</u><br/>boulder<br/><br/>
<u>Publication</u><br/>Gillespie et al. (2008)
]]>
</description>
<styleUrl>#boulder</styleUrl>
<Point>
<coordinates>99.77220,51.39957</coordinates>
</Point>
</Placemark>
<Placemark>
<name>arg-Gar-Ia-002</name>
<description>
<![CDATA[
<sup>10</sup>Be: 20859 &#177; 1412<br/><br/>
<u>Sample</u><br/>boulder<br/><br/>
<u>Publication</u><br/>Gillespie et al. (2008)
]]>
</description>
<styleUrl>#boulder</styleUrl>
<Point>
<coordinates>99.77220,51.39957</coordinates>
</Point>
</Placemark>
<Placemark>
<name>arg-Gar-Ia-003</name>
<description>
<![CDATA[
<sup>10</sup>Be: 23709 &#177; 1563<br/><br/>
<u>Sample</u><br/>boulder<br/><br/>
<u>Publication</u><br/>Gillespie et al. (2008)
]]>
</description>
<styleUrl>#boulder</styleUrl>
<Point>
<coordinates>99.77220,51.39957</coordinates>
</Point>
</Placemark>
<Placemark>
<name>arg-Gar-Ia-010</name>
<description>
<![CDATA[
<sup>10</sup>Be: 44113 &#177; 2907<br/><br/>
<u>Sample</u><br/>boulder<br/><br/>
<u>Publication</u><br/>Gillespie et al. (2008)
]]>
</description>
<styleUrl>#boulder</styleUrl>
<Point>
<coordinates>99.77220,51.39957</coordinates>
</Point>
</Placemark>
<Placemark>
<name>arg-Gar-Ia-011</name>
<description>
<![CDATA[
<sup>10</sup>Be: 43415 &#177; 3988<br/><br/>
<u>Sample</u><br/>boulder<br/><br/>
<u>Publication</u><br/>Gillespie et al. (2008)
]]>
</description>
<styleUrl>#boulder</styleUrl>
<Point>
<coordinates>99.77220,51.39957</coordinates>
</Point>
</Placemark>
<Placemark>
<name>arg-Gar-Ia-012</name>
<description>
<![CDATA[
<sup>10</sup>Be: 19269 &#177; 1278<br/><br/>
<u>Sample</u><br/>boulder<br/><br/>
<u>Publication</u><br/>Gillespie et al. (2008)
]]>
</description>
<styleUrl>#boulder</styleUrl>
<Point>
<coordinates>99.77220,51.39957</coordinates>
</Point>
</Placemark>
<Placemark>
<name>arg-Gar-Ia-013</name>
<description>
<![CDATA[
<sup>10</sup>Be: 20072 &#177; 1366<br/><br/>
<u>Sample</u><br/>boulder<br/><br/>
<u>Publication</u><br/>Gillespie et al. (2008)
]]>
</description>
<styleUrl>#boulder</styleUrl>
<Point>
<coordinates>99.77220,51.39957</coordinates>
</Point>
</Placemark>
<Placemark>
<name>arg-Gar-IIa-005</name>
<description>
<![CDATA[
<sup>10</sup>Be: 29720 &#177; 2022<br/><br/>
<u>Sample</u><br/>boulder<br/><br/>
<u>Publication</u><br/>Gillespie et al. (2008)
]]>
</description>
<styleUrl>#boulder</styleUrl>
<Point>
<coordinates>99.79990,51.39935</coordinates>
</Point>
</Placemark>
<Placemark>
<name>arg-Gar-IIa-007</name>
<description>
<![CDATA[
<sup>10</sup>Be: 18371 &#177; 1239<br/><br/>
<u>Sample</u><br/>boulder<br/><br/>
<u>Publication</u><br/>Gillespie et al. (2008)
]]>
</description>
<styleUrl>#boulder</styleUrl>
<Point>
<coordinates>99.79990,51.39935</coordinates>
</Point>
</Placemark>
<Placemark>
<name>arg-Gar-IIa-008</name>
<description>
<![CDATA[
<sup>10</sup>Be: 21072 &#177; 1383<br/><br/>
<u>Sample</u><br/>boulder<br/><br/>
<u>Publication</u><br/>Gillespie et al. (2008)
]]>
</description>
<styleUrl>#boulder</styleUrl>
<Point>
<coordinates>99.79990,51.39935</coordinates>
</Point>
</Placemark>
<Placemark>
<name>arg-Huj-01a</name>
<description>
<![CDATA[
<sup>10</sup>Be: 239208 &#177; 19392<br/><br/>
<u>Sample</u><br/>boulder<br/><br/>
<u>Publication</u><br/>Gillespie et al. (2008)
]]>
</description>
<styleUrl>#boulder</styleUrl>
<Point>
<coordinates>99.125,51.006</coordinates>
</Point>
</Placemark>
<Placemark>
<name>arg-Huj-01b</name>
<description>
<![CDATA[
<sup>10</sup>Be: 108612 &#177; 7279<br/><br/>
<u>Sample</u><br/>boulder<br/><br/>
<u>Publication</u><br/>Gillespie et al. (2008)
]]>
</description>
<styleUrl>#boulder</styleUrl>
<Point>
<coordinates>99.125,51.006</coordinates>
</Point>
</Placemark>
<Placemark>
<name>arg-Huj-01c</name>
<description>
<![CDATA[
<sup>10</sup>Be: 138127 &#177; 9321<br/><br/>
<u>Sample</u><br/>boulder<br/><br/>
<u>Publication</u><br/>Gillespie et al. (2008)
]]>
</description>
<styleUrl>#boulder</styleUrl>
<Point>
<coordinates>99.125,51.006</coordinates>
</Point>
</Placemark>
<Placemark>
<name>arg-Huj-02a</name>
<description>
<![CDATA[
<sup>10</sup>Be: 16443 &#177; 1171<br/><br/>
<u>Sample</u><br/>boulder<br/><br/>
<u>Publication</u><br/>Gillespie et al. (2008)
]]>
</description>
<styleUrl>#boulder</styleUrl>
<Point>
<coordinates>99.152,50.981</coordinates>
</Point>
</Placemark>
<Placemark>
<name>arg-Huj-02b</name>
<description>
<![CDATA[
<sup>10</sup>Be: 44234 &#177; 3011<br/><br/>
<u>Sample</u><br/>boulder<br/><br/>
<u>Publication</u><br/>Gillespie et al. (2008)
]]>
</description>
<styleUrl>#boulder</styleUrl>
<Point>
<coordinates>99.152,50.981</coordinates>
</Point>
</Placemark>
<Placemark>
<name>arg-Huj-02c</name>
<description>
<![CDATA[
<sup>10</sup>Be: 28661 &#177; 2023<br/><br/>
<u>Sample</u><br/>boulder<br/><br/>
<u>Publication</u><br/>Gillespie et al. (2008)
]]>
</description>
<styleUrl>#boulder</styleUrl>
<Point>
<coordinates>99.152,50.981</coordinates>
</Point>
</Placemark>
</Document>
</kml>