<?xml version="1.0" encoding="UTF-8"?>
<kml xmlns="http://www.opengis.net/kml/2.2">
<Document>
<name>Graf et al. (2015)</name>
<description>
<![CDATA[
Data from expage-202002<br/><br/>
<a href="http://expage.github.io/">expage.github.io</a>
]]>
</description>
<Style id="bedrock">
<IconStyle>
<color>ff0000ff</color>
<colorMode>normal</colorMode>
<scale>1</scale>
<Icon>
<href>http://maps.google.com/mapfiles/kml/shapes/shaded_dot.png</href>
</Icon>
</IconStyle>
<BalloonStyle>
<text><![CDATA[<b><font size='4'>$[name]</font></b><br/><br/><u>LSD age (yr)</u><br/>$[description]]]></text>
</BalloonStyle>
</Style>
<Style id="boulder">
<IconStyle>
<color>ff00ffff</color>
<colorMode>normal</colorMode>
<scale>1</scale>
<Icon>
<href>http://maps.google.com/mapfiles/kml/shapes/shaded_dot.png</href>
</Icon>
</IconStyle>
<BalloonStyle>
<text><![CDATA[<b><font size='4'>$[name]</font></b><br/><br/><u>LSD age (yr)</u><br/>$[description]]]></text>
</BalloonStyle>
</Style>
<Style id="other">
<IconStyle>
<color>ffff0000</color>
<colorMode>normal</colorMode>
<scale>1</scale>
<Icon>
<href>http://maps.google.com/mapfiles/kml/shapes/shaded_dot.png</href>
</Icon>
</IconStyle>
<BalloonStyle>
<text><![CDATA[<b><font size='4'>$[name]</font></b><br/><br/><u>LSD age (yr)</u><br/>$[description]]]></text>
</BalloonStyle>
</Style>

<Placemark>
<name>RH-2</name>
<description>
<![CDATA[
<sup>10</sup>Be: 15942 &#177; 1206<br/><br/>
<u>Sample</u><br/>boulder<br/><br/>
<u>Publication</u><br/><a href="http://expage.github.io/data/txt/Graf-et-al-2015.txt">Graf et al. (2015)</a>
]]>
</description>
<styleUrl>#boulder</styleUrl>
<Point>
<coordinates>7.2806,47.1718</coordinates>
</Point>
</Placemark>
<Placemark>
<name>RH-3c</name>
<description>
<![CDATA[
<sup>10</sup>Be: 56295 &#177; 4931<br/><br/>
<u>Sample</u><br/>boulder<br/><br/>
<u>Publication</u><br/><a href="http://expage.github.io/data/txt/Graf-et-al-2015.txt">Graf et al. (2015)</a>
]]>
</description>
<styleUrl>#boulder</styleUrl>
<Point>
<coordinates>7.2816,47.1716</coordinates>
</Point>
</Placemark>
<Placemark>
<name>PAB-1</name>
<description>
<![CDATA[
<sup>10</sup>Be: 21435 &#177; 1730<br/><br/>
<u>Sample</u><br/>boulder<br/><br/>
<u>Publication</u><br/><a href="http://expage.github.io/data/txt/Graf-et-al-2015.txt">Graf et al. (2015)</a>
]]>
</description>
<styleUrl>#boulder</styleUrl>
<Point>
<coordinates>6.9104,47.0037</coordinates>
</Point>
</Placemark>
<Placemark>
<name>PAB-2</name>
<description>
<![CDATA[
<sup>10</sup>Be: 22395 &#177; 1722<br/><br/>
<u>Sample</u><br/>boulder<br/><br/>
<u>Publication</u><br/><a href="http://expage.github.io/data/txt/Graf-et-al-2015.txt">Graf et al. (2015)</a>
]]>
</description>
<styleUrl>#boulder</styleUrl>
<Point>
<coordinates>6.9104,47.0037</coordinates>
</Point>
</Placemark>
<Placemark>
<name>VDR-1</name>
<description>
<![CDATA[
<sup>10</sup>Be: 31203 &#177; 3021<br/><br/>
<u>Sample</u><br/>boulder<br/><br/>
<u>Publication</u><br/><a href="http://expage.github.io/data/txt/Graf-et-al-2015.txt">Graf et al. (2015)</a>
]]>
</description>
<styleUrl>#boulder</styleUrl>
<Point>
<coordinates>6.9645,47.0893</coordinates>
</Point>
</Placemark>
<Placemark>
<name>VDR-2</name>
<description>
<![CDATA[
<sup>10</sup>Be: 20165 &#177; 1798<br/><br/>
<u>Sample</u><br/>boulder<br/><br/>
<u>Publication</u><br/><a href="http://expage.github.io/data/txt/Graf-et-al-2015.txt">Graf et al. (2015)</a>
]]>
</description>
<styleUrl>#boulder</styleUrl>
<Point>
<coordinates>6.9645,47.0893</coordinates>
</Point>
</Placemark>
<Placemark>
<name>VDR-3</name>
<description>
<![CDATA[
<sup>10</sup>Be: 42087 &#177; 3036<br/><br/>
<u>Sample</u><br/>boulder<br/><br/>
<u>Publication</u><br/><a href="http://expage.github.io/data/txt/Graf-et-al-2015.txt">Graf et al. (2015)</a>
]]>
</description>
<styleUrl>#boulder</styleUrl>
<Point>
<coordinates>6.9645,47.0893</coordinates>
</Point>
</Placemark>
<Placemark>
<name>VDR-4</name>
<description>
<![CDATA[
<sup>10</sup>Be: 26339 &#177; 2355<br/><br/>
<u>Sample</u><br/>boulder<br/><br/>
<u>Publication</u><br/><a href="http://expage.github.io/data/txt/Graf-et-al-2015.txt">Graf et al. (2015)</a>
]]>
</description>
<styleUrl>#boulder</styleUrl>
<Point>
<coordinates>6.9595,47.0891</coordinates>
</Point>
</Placemark>
<Placemark>
<name>MDA-1</name>
<description>
<![CDATA[
<sup>10</sup>Be: 125481 &#177; 8155<br/><br/>
<u>Sample</u><br/>boulder<br/><br/>
<u>Publication</u><br/><a href="http://expage.github.io/data/txt/Graf-et-al-2015.txt">Graf et al. (2015)</a>
]]>
</description>
<styleUrl>#boulder</styleUrl>
<Point>
<coordinates>6.9032,47.0812</coordinates>
</Point>
</Placemark>
<Placemark>
<name>GRI-1</name>
<description>
<![CDATA[
<sup>10</sup>Be: 22316 &#177; 1768<br/><br/>
<u>Sample</u><br/>boulder<br/><br/>
<u>Publication</u><br/><a href="http://expage.github.io/data/txt/Graf-et-al-2015.txt">Graf et al. (2015)</a>
]]>
</description>
<styleUrl>#boulder</styleUrl>
<Point>
<coordinates>6.8392,47.0646</coordinates>
</Point>
</Placemark>
<Placemark>
<name>COR-1</name>
<description>
<![CDATA[
<sup>10</sup>Be: 47582 &#177; 3337<br/><br/>
<u>Sample</u><br/>boulder<br/><br/>
<u>Publication</u><br/><a href="http://expage.github.io/data/txt/Graf-et-al-2015.txt">Graf et al. (2015)</a>
]]>
</description>
<styleUrl>#boulder</styleUrl>
<Point>
<coordinates>6.8625,47.1044</coordinates>
</Point>
</Placemark>
<Placemark>
<name>PBOL-1</name>
<description>
<![CDATA[
<sup>10</sup>Be: 20697 &#177; 1706<br/><br/>
<u>Sample</u><br/>boulder<br/><br/>
<u>Publication</u><br/><a href="http://expage.github.io/data/txt/Graf-et-al-2015.txt">Graf et al. (2015)</a>
]]>
</description>
<styleUrl>#boulder</styleUrl>
<Point>
<coordinates>6.4891,46.7803</coordinates>
</Point>
</Placemark>
<Placemark>
<name>CREB-1</name>
<description>
<![CDATA[
<sup>10</sup>Be: 19820 &#177; 1499<br/><br/>
<u>Sample</u><br/>boulder<br/><br/>
<u>Publication</u><br/><a href="http://expage.github.io/data/txt/Graf-et-al-2015.txt">Graf et al. (2015)</a>
]]>
</description>
<styleUrl>#boulder</styleUrl>
<Point>
<coordinates>6.4916,46.7922</coordinates>
</Point>
</Placemark>
<Placemark>
<name>CREB-2</name>
<description>
<![CDATA[
<sup>10</sup>Be: 15303 &#177; 1428<br/><br/>
<u>Sample</u><br/>boulder<br/><br/>
<u>Publication</u><br/><a href="http://expage.github.io/data/txt/Graf-et-al-2015.txt">Graf et al. (2015)</a>
]]>
</description>
<styleUrl>#boulder</styleUrl>
<Point>
<coordinates>6.4880,46.7911</coordinates>
</Point>
</Placemark>
<Placemark>
<name>CREB-3</name>
<description>
<![CDATA[
<sup>10</sup>Be: 17514 &#177; 1442<br/><br/>
<u>Sample</u><br/>boulder<br/><br/>
<u>Publication</u><br/><a href="http://expage.github.io/data/txt/Graf-et-al-2015.txt">Graf et al. (2015)</a>
]]>
</description>
<styleUrl>#boulder</styleUrl>
<Point>
<coordinates>6.4924,46.7939</coordinates>
</Point>
</Placemark>
<Placemark>
<name>PEB-1</name>
<description>
<![CDATA[
<sup>10</sup>Be: 33636 &#177; 2529<br/><br/>
<u>Sample</u><br/>boulder<br/><br/>
<u>Publication</u><br/><a href="http://expage.github.io/data/txt/Graf-et-al-2015.txt">Graf et al. (2015)</a>
]]>
</description>
<styleUrl>#boulder</styleUrl>
<Point>
<coordinates>6.4623,46.7966</coordinates>
</Point>
</Placemark>
<Placemark>
<name>GJ-1</name>
<description>
<![CDATA[
<sup>10</sup>Be: 19781 &#177; 1635<br/><br/>
<u>Sample</u><br/>boulder<br/><br/>
<u>Publication</u><br/><a href="http://expage.github.io/data/txt/Graf-et-al-2015.txt">Graf et al. (2015)</a>
]]>
</description>
<styleUrl>#boulder</styleUrl>
<Point>
<coordinates>6.4633,46.8319</coordinates>
</Point>
</Placemark>
<Placemark>
<name>GJ-2</name>
<description>
<![CDATA[
<sup>10</sup>Be: 37706 &#177; 3517<br/><br/>
<u>Sample</u><br/>boulder<br/><br/>
<u>Publication</u><br/><a href="http://expage.github.io/data/txt/Graf-et-al-2015.txt">Graf et al. (2015)</a>
]]>
</description>
<styleUrl>#boulder</styleUrl>
<Point>
<coordinates>6.4628,46.8312</coordinates>
</Point>
</Placemark>
</Document>
</kml>