<?xml version="1.0" encoding="UTF-8"?>
<kml xmlns="http://www.opengis.net/kml/2.2">
<Document>
<name>Graf et al. (2015)</name>
<description>
<![CDATA[
Data from expage-201906<br/><br/>
<a href="http://expage.github.io/">expage.github.io</a>
]]>
</description>
<Style id="bedrock">
<IconStyle>
<color>ff0000ff</color>
<colorMode>normal</colorMode>
<scale>1</scale>
<Icon>
<href>http://maps.google.com/mapfiles/kml/shapes/shaded_dot.png</href>
</Icon>
</IconStyle>
<BalloonStyle>
<text><![CDATA[<b><font size='4'>$[name]</font></b><br/><br/><u>LSD age (yr)</u><br/>$[description]]]></text>
</BalloonStyle>
</Style>
<Style id="boulder">
<IconStyle>
<color>ff00ffff</color>
<colorMode>normal</colorMode>
<scale>1</scale>
<Icon>
<href>http://maps.google.com/mapfiles/kml/shapes/shaded_dot.png</href>
</Icon>
</IconStyle>
<BalloonStyle>
<text><![CDATA[<b><font size='4'>$[name]</font></b><br/><br/><u>LSD age (yr)</u><br/>$[description]]]></text>
</BalloonStyle>
</Style>
<Style id="other">
<IconStyle>
<color>ffff0000</color>
<colorMode>normal</colorMode>
<scale>1</scale>
<Icon>
<href>http://maps.google.com/mapfiles/kml/shapes/shaded_dot.png</href>
</Icon>
</IconStyle>
<BalloonStyle>
<text><![CDATA[<b><font size='4'>$[name]</font></b><br/><br/><u>LSD age (yr)</u><br/>$[description]]]></text>
</BalloonStyle>
</Style>

<Placemark>
<name>RH-2</name>
<description>
<![CDATA[
<sup>10</sup>Be: 15981 &#177; 1211<br/><br/>
<u>Sample</u><br/>boulder<br/><br/>
<u>Publication</u><br/><a href="http://expage.github.io/data/txt/Graf-et-al-2015.txt">Graf et al. (2015)</a>
]]>
</description>
<styleUrl>#boulder</styleUrl>
<Point>
<coordinates>7.2806,47.1718</coordinates>
</Point>
</Placemark>
<Placemark>
<name>RH-3c</name>
<description>
<![CDATA[
<sup>10</sup>Be: 56437 &#177; 4948<br/><br/>
<u>Sample</u><br/>boulder<br/><br/>
<u>Publication</u><br/><a href="http://expage.github.io/data/txt/Graf-et-al-2015.txt">Graf et al. (2015)</a>
]]>
</description>
<styleUrl>#boulder</styleUrl>
<Point>
<coordinates>7.2816,47.1716</coordinates>
</Point>
</Placemark>
<Placemark>
<name>PAB-1</name>
<description>
<![CDATA[
<sup>10</sup>Be: 21487 &#177; 1736<br/><br/>
<u>Sample</u><br/>boulder<br/><br/>
<u>Publication</u><br/><a href="http://expage.github.io/data/txt/Graf-et-al-2015.txt">Graf et al. (2015)</a>
]]>
</description>
<styleUrl>#boulder</styleUrl>
<Point>
<coordinates>6.9104,47.0037</coordinates>
</Point>
</Placemark>
<Placemark>
<name>PAB-2</name>
<description>
<![CDATA[
<sup>10</sup>Be: 22450 &#177; 1729<br/><br/>
<u>Sample</u><br/>boulder<br/><br/>
<u>Publication</u><br/><a href="http://expage.github.io/data/txt/Graf-et-al-2015.txt">Graf et al. (2015)</a>
]]>
</description>
<styleUrl>#boulder</styleUrl>
<Point>
<coordinates>6.9104,47.0037</coordinates>
</Point>
</Placemark>
<Placemark>
<name>VDR-1</name>
<description>
<![CDATA[
<sup>10</sup>Be: 31279 &#177; 3031<br/><br/>
<u>Sample</u><br/>boulder<br/><br/>
<u>Publication</u><br/><a href="http://expage.github.io/data/txt/Graf-et-al-2015.txt">Graf et al. (2015)</a>
]]>
</description>
<styleUrl>#boulder</styleUrl>
<Point>
<coordinates>6.9645,47.0893</coordinates>
</Point>
</Placemark>
<Placemark>
<name>VDR-2</name>
<description>
<![CDATA[
<sup>10</sup>Be: 20213 &#177; 1804<br/><br/>
<u>Sample</u><br/>boulder<br/><br/>
<u>Publication</u><br/><a href="http://expage.github.io/data/txt/Graf-et-al-2015.txt">Graf et al. (2015)</a>
]]>
</description>
<styleUrl>#boulder</styleUrl>
<Point>
<coordinates>6.9645,47.0893</coordinates>
</Point>
</Placemark>
<Placemark>
<name>VDR-3</name>
<description>
<![CDATA[
<sup>10</sup>Be: 42190 &#177; 3048<br/><br/>
<u>Sample</u><br/>boulder<br/><br/>
<u>Publication</u><br/><a href="http://expage.github.io/data/txt/Graf-et-al-2015.txt">Graf et al. (2015)</a>
]]>
</description>
<styleUrl>#boulder</styleUrl>
<Point>
<coordinates>6.9645,47.0893</coordinates>
</Point>
</Placemark>
<Placemark>
<name>VDR-4</name>
<description>
<![CDATA[
<sup>10</sup>Be: 26403 &#177; 2363<br/><br/>
<u>Sample</u><br/>boulder<br/><br/>
<u>Publication</u><br/><a href="http://expage.github.io/data/txt/Graf-et-al-2015.txt">Graf et al. (2015)</a>
]]>
</description>
<styleUrl>#boulder</styleUrl>
<Point>
<coordinates>6.9595,47.0891</coordinates>
</Point>
</Placemark>
<Placemark>
<name>MDA-1</name>
<description>
<![CDATA[
<sup>10</sup>Be: 125802 &#177; 8192<br/><br/>
<u>Sample</u><br/>boulder<br/><br/>
<u>Publication</u><br/><a href="http://expage.github.io/data/txt/Graf-et-al-2015.txt">Graf et al. (2015)</a>
]]>
</description>
<styleUrl>#boulder</styleUrl>
<Point>
<coordinates>6.9032,47.0812</coordinates>
</Point>
</Placemark>
<Placemark>
<name>GRI-1</name>
<description>
<![CDATA[
<sup>10</sup>Be: 22371 &#177; 1774<br/><br/>
<u>Sample</u><br/>boulder<br/><br/>
<u>Publication</u><br/><a href="http://expage.github.io/data/txt/Graf-et-al-2015.txt">Graf et al. (2015)</a>
]]>
</description>
<styleUrl>#boulder</styleUrl>
<Point>
<coordinates>6.8392,47.0646</coordinates>
</Point>
</Placemark>
<Placemark>
<name>COR-1</name>
<description>
<![CDATA[
<sup>10</sup>Be: 47704 &#177; 3351<br/><br/>
<u>Sample</u><br/>boulder<br/><br/>
<u>Publication</u><br/><a href="http://expage.github.io/data/txt/Graf-et-al-2015.txt">Graf et al. (2015)</a>
]]>
</description>
<styleUrl>#boulder</styleUrl>
<Point>
<coordinates>6.8625,47.1044</coordinates>
</Point>
</Placemark>
<Placemark>
<name>PBOL-1</name>
<description>
<![CDATA[
<sup>10</sup>Be: 20746 &#177; 1712<br/><br/>
<u>Sample</u><br/>boulder<br/><br/>
<u>Publication</u><br/><a href="http://expage.github.io/data/txt/Graf-et-al-2015.txt">Graf et al. (2015)</a>
]]>
</description>
<styleUrl>#boulder</styleUrl>
<Point>
<coordinates>6.4891,46.7803</coordinates>
</Point>
</Placemark>
<Placemark>
<name>CREB-1</name>
<description>
<![CDATA[
<sup>10</sup>Be: 19867 &#177; 1505<br/><br/>
<u>Sample</u><br/>boulder<br/><br/>
<u>Publication</u><br/><a href="http://expage.github.io/data/txt/Graf-et-al-2015.txt">Graf et al. (2015)</a>
]]>
</description>
<styleUrl>#boulder</styleUrl>
<Point>
<coordinates>6.4916,46.7922</coordinates>
</Point>
</Placemark>
<Placemark>
<name>CREB-2</name>
<description>
<![CDATA[
<sup>10</sup>Be: 15340 &#177; 1433<br/><br/>
<u>Sample</u><br/>boulder<br/><br/>
<u>Publication</u><br/><a href="http://expage.github.io/data/txt/Graf-et-al-2015.txt">Graf et al. (2015)</a>
]]>
</description>
<styleUrl>#boulder</styleUrl>
<Point>
<coordinates>6.4880,46.7911</coordinates>
</Point>
</Placemark>
<Placemark>
<name>CREB-3</name>
<description>
<![CDATA[
<sup>10</sup>Be: 17557 &#177; 1447<br/><br/>
<u>Sample</u><br/>boulder<br/><br/>
<u>Publication</u><br/><a href="http://expage.github.io/data/txt/Graf-et-al-2015.txt">Graf et al. (2015)</a>
]]>
</description>
<styleUrl>#boulder</styleUrl>
<Point>
<coordinates>6.4924,46.7939</coordinates>
</Point>
</Placemark>
<Placemark>
<name>PEB-1</name>
<description>
<![CDATA[
<sup>10</sup>Be: 33718 &#177; 2539<br/><br/>
<u>Sample</u><br/>boulder<br/><br/>
<u>Publication</u><br/><a href="http://expage.github.io/data/txt/Graf-et-al-2015.txt">Graf et al. (2015)</a>
]]>
</description>
<styleUrl>#boulder</styleUrl>
<Point>
<coordinates>6.4623,46.7966</coordinates>
</Point>
</Placemark>
<Placemark>
<name>GJ-1</name>
<description>
<![CDATA[
<sup>10</sup>Be: 19828 &#177; 1640<br/><br/>
<u>Sample</u><br/>boulder<br/><br/>
<u>Publication</u><br/><a href="http://expage.github.io/data/txt/Graf-et-al-2015.txt">Graf et al. (2015)</a>
]]>
</description>
<styleUrl>#boulder</styleUrl>
<Point>
<coordinates>6.4633,46.8319</coordinates>
</Point>
</Placemark>
<Placemark>
<name>GJ-2</name>
<description>
<![CDATA[
<sup>10</sup>Be: 37797 &#177; 3529<br/><br/>
<u>Sample</u><br/>boulder<br/><br/>
<u>Publication</u><br/><a href="http://expage.github.io/data/txt/Graf-et-al-2015.txt">Graf et al. (2015)</a>
]]>
</description>
<styleUrl>#boulder</styleUrl>
<Point>
<coordinates>6.4628,46.8312</coordinates>
</Point>
</Placemark>
</Document>
</kml>