<?xml version="1.0" encoding="UTF-8"?>
<kml xmlns="http://www.opengis.net/kml/2.2">
<Document>
<name>Graf et al. (2015)</name>
<description>
<![CDATA[
<a href="http://expage.github.io/">expage.github.io</a>
]]>
</description>
<Style id="bedrock">
<IconStyle>
<color>ff0000ff</color>
<colorMode>normal</colorMode>
<scale>1</scale>
<Icon>
<href>http://maps.google.com/mapfiles/kml/shapes/shaded_dot.png</href>
</Icon>
</IconStyle>
<BalloonStyle>
<text><![CDATA[<b><font size='4'>$[name]</font></b><br/><br/><u>LSD age (yr)</u><br/>$[description]]]></text>
</BalloonStyle>
</Style>
<Style id="boulder">
<IconStyle>
<color>ff00ffff</color>
<colorMode>normal</colorMode>
<scale>1</scale>
<Icon>
<href>http://maps.google.com/mapfiles/kml/shapes/shaded_dot.png</href>
</Icon>
</IconStyle>
<BalloonStyle>
<text><![CDATA[<b><font size='4'>$[name]</font></b><br/><br/><u>LSD age (yr)</u><br/>$[description]]]></text>
</BalloonStyle>
</Style>
<Style id="other">
<IconStyle>
<color>ffff0000</color>
<colorMode>normal</colorMode>
<scale>1</scale>
<Icon>
<href>http://maps.google.com/mapfiles/kml/shapes/shaded_dot.png</href>
</Icon>
</IconStyle>
<BalloonStyle>
<text><![CDATA[<b><font size='4'>$[name]</font></b><br/><br/><u>LSD age (yr)</u><br/>$[description]]]></text>
</BalloonStyle>
</Style>
<Placemark>
<name>RH-2</name>
<description>
<![CDATA[
<sup>10</sup>Be: 15934 &#177; 1177<br/><br/>
<u>Sample</u><br/>boulder<br/><br/>
<u>Publication</u><br/>Graf et al. (2015)
]]>
</description>
<styleUrl>#boulder</styleUrl>
<Point>
<coordinates>7.2806,47.1718</coordinates>
</Point>
</Placemark>
<Placemark>
<name>RH-3c</name>
<description>
<![CDATA[
<sup>10</sup>Be: 56268 &#177; 4838<br/><br/>
<u>Sample</u><br/>boulder<br/><br/>
<u>Publication</u><br/>Graf et al. (2015)
]]>
</description>
<styleUrl>#boulder</styleUrl>
<Point>
<coordinates>7.2816,47.1716</coordinates>
</Point>
</Placemark>
<Placemark>
<name>PAB-1</name>
<description>
<![CDATA[
<sup>10</sup>Be: 21422 &#177; 1692<br/><br/>
<u>Sample</u><br/>boulder<br/><br/>
<u>Publication</u><br/>Graf et al. (2015)
]]>
</description>
<styleUrl>#boulder</styleUrl>
<Point>
<coordinates>6.9104,47.0037</coordinates>
</Point>
</Placemark>
<Placemark>
<name>PAB-2</name>
<description>
<![CDATA[
<sup>10</sup>Be: 22380 &#177; 1681<br/><br/>
<u>Sample</u><br/>boulder<br/><br/>
<u>Publication</u><br/>Graf et al. (2015)
]]>
</description>
<styleUrl>#boulder</styleUrl>
<Point>
<coordinates>6.9104,47.0037</coordinates>
</Point>
</Placemark>
<Placemark>
<name>VDR-1</name>
<description>
<![CDATA[
<sup>10</sup>Be: 31190 &#177; 2975<br/><br/>
<u>Sample</u><br/>boulder<br/><br/>
<u>Publication</u><br/>Graf et al. (2015)
]]>
</description>
<styleUrl>#boulder</styleUrl>
<Point>
<coordinates>6.9645,47.0893</coordinates>
</Point>
</Placemark>
<Placemark>
<name>VDR-2</name>
<description>
<![CDATA[
<sup>10</sup>Be: 20156 &#177; 1766<br/><br/>
<u>Sample</u><br/>boulder<br/><br/>
<u>Publication</u><br/>Graf et al. (2015)
]]>
</description>
<styleUrl>#boulder</styleUrl>
<Point>
<coordinates>6.9645,47.0893</coordinates>
</Point>
</Placemark>
<Placemark>
<name>VDR-3</name>
<description>
<![CDATA[
<sup>10</sup>Be: 42070 &#177; 2952<br/><br/>
<u>Sample</u><br/>boulder<br/><br/>
<u>Publication</u><br/>Graf et al. (2015)
]]>
</description>
<styleUrl>#boulder</styleUrl>
<Point>
<coordinates>6.9645,47.0893</coordinates>
</Point>
</Placemark>
<Placemark>
<name>VDR-4</name>
<description>
<![CDATA[
<sup>10</sup>Be: 26328 &#177; 2313<br/><br/>
<u>Sample</u><br/>boulder<br/><br/>
<u>Publication</u><br/>Graf et al. (2015)
]]>
</description>
<styleUrl>#boulder</styleUrl>
<Point>
<coordinates>6.9595,47.0891</coordinates>
</Point>
</Placemark>
<Placemark>
<name>MDA-1</name>
<description>
<![CDATA[
<sup>10</sup>Be: 125445 &#177; 7869<br/><br/>
<u>Sample</u><br/>boulder<br/><br/>
<u>Publication</u><br/>Graf et al. (2015)
]]>
</description>
<styleUrl>#boulder</styleUrl>
<Point>
<coordinates>6.9032,47.0812</coordinates>
</Point>
</Placemark>
<Placemark>
<name>GRI-1</name>
<description>
<![CDATA[
<sup>10</sup>Be: 22308 &#177; 1728<br/><br/>
<u>Sample</u><br/>boulder<br/><br/>
<u>Publication</u><br/>Graf et al. (2015)
]]>
</description>
<styleUrl>#boulder</styleUrl>
<Point>
<coordinates>6.8392,47.0646</coordinates>
</Point>
</Placemark>
<Placemark>
<name>COR-1</name>
<description>
<![CDATA[
<sup>10</sup>Be: 47568 &#177; 3241<br/><br/>
<u>Sample</u><br/>boulder<br/><br/>
<u>Publication</u><br/>Graf et al. (2015)
]]>
</description>
<styleUrl>#boulder</styleUrl>
<Point>
<coordinates>6.8625,47.1044</coordinates>
</Point>
</Placemark>
<Placemark>
<name>PBOL-1</name>
<description>
<![CDATA[
<sup>10</sup>Be: 20691 &#177; 1671<br/><br/>
<u>Sample</u><br/>boulder<br/><br/>
<u>Publication</u><br/>Graf et al. (2015)
]]>
</description>
<styleUrl>#boulder</styleUrl>
<Point>
<coordinates>6.4891,46.7803</coordinates>
</Point>
</Placemark>
<Placemark>
<name>CREB-1</name>
<description>
<![CDATA[
<sup>10</sup>Be: 19815 &#177; 1463<br/><br/>
<u>Sample</u><br/>boulder<br/><br/>
<u>Publication</u><br/>Graf et al. (2015)
]]>
</description>
<styleUrl>#boulder</styleUrl>
<Point>
<coordinates>6.4916,46.7922</coordinates>
</Point>
</Placemark>
<Placemark>
<name>CREB-2</name>
<description>
<![CDATA[
<sup>10</sup>Be: 15299 &#177; 1405<br/><br/>
<u>Sample</u><br/>boulder<br/><br/>
<u>Publication</u><br/>Graf et al. (2015)
]]>
</description>
<styleUrl>#boulder</styleUrl>
<Point>
<coordinates>6.4880,46.7911</coordinates>
</Point>
</Placemark>
<Placemark>
<name>CREB-3</name>
<description>
<![CDATA[
<sup>10</sup>Be: 17509 &#177; 1412<br/><br/>
<u>Sample</u><br/>boulder<br/><br/>
<u>Publication</u><br/>Graf et al. (2015)
]]>
</description>
<styleUrl>#boulder</styleUrl>
<Point>
<coordinates>6.4924,46.7939</coordinates>
</Point>
</Placemark>
<Placemark>
<name>PEB-1</name>
<description>
<![CDATA[
<sup>10</sup>Be: 33626 &#177; 2466<br/><br/>
<u>Sample</u><br/>boulder<br/><br/>
<u>Publication</u><br/>Graf et al. (2015)
]]>
</description>
<styleUrl>#boulder</styleUrl>
<Point>
<coordinates>6.4623,46.7966</coordinates>
</Point>
</Placemark>
<Placemark>
<name>GJ-1</name>
<description>
<![CDATA[
<sup>10</sup>Be: 19773 &#177; 1601<br/><br/>
<u>Sample</u><br/>boulder<br/><br/>
<u>Publication</u><br/>Graf et al. (2015)
]]>
</description>
<styleUrl>#boulder</styleUrl>
<Point>
<coordinates>6.4633,46.8319</coordinates>
</Point>
</Placemark>
<Placemark>
<name>GJ-2</name>
<description>
<![CDATA[
<sup>10</sup>Be: 37692 &#177; 3459<br/><br/>
<u>Sample</u><br/>boulder<br/><br/>
<u>Publication</u><br/>Graf et al. (2015)
]]>
</description>
<styleUrl>#boulder</styleUrl>
<Point>
<coordinates>6.4628,46.8312</coordinates>
</Point>
</Placemark>
</Document>
</kml>