<?xml version="1.0" encoding="UTF-8"?>
<kml xmlns="http://www.opengis.net/kml/2.2">
<Document>
<name>Rodés Bolumburu (2008)</name>
<description>
<![CDATA[
Data from expage-201903<br/><br/>
<a href="http://expage.github.io/">expage.github.io</a>
]]>
</description>
<Style id="bedrock">
<IconStyle>
<color>ff0000ff</color>
<colorMode>normal</colorMode>
<scale>1</scale>
<Icon>
<href>http://maps.google.com/mapfiles/kml/shapes/shaded_dot.png</href>
</Icon>
</IconStyle>
<BalloonStyle>
<text><![CDATA[<b><font size='4'>$[name]</font></b><br/><br/><u>LSD age (yr)</u><br/>$[description]]]></text>
</BalloonStyle>
</Style>
<Style id="boulder">
<IconStyle>
<color>ff00ffff</color>
<colorMode>normal</colorMode>
<scale>1</scale>
<Icon>
<href>http://maps.google.com/mapfiles/kml/shapes/shaded_dot.png</href>
</Icon>
</IconStyle>
<BalloonStyle>
<text><![CDATA[<b><font size='4'>$[name]</font></b><br/><br/><u>LSD age (yr)</u><br/>$[description]]]></text>
</BalloonStyle>
</Style>
<Style id="other">
<IconStyle>
<color>ffff0000</color>
<colorMode>normal</colorMode>
<scale>1</scale>
<Icon>
<href>http://maps.google.com/mapfiles/kml/shapes/shaded_dot.png</href>
</Icon>
</IconStyle>
<BalloonStyle>
<text><![CDATA[<b><font size='4'>$[name]</font></b><br/><br/><u>LSD age (yr)</u><br/>$[description]]]></text>
</BalloonStyle>
</Style>

<Placemark>
<name>ECH01</name>
<description>
<![CDATA[
<sup>10</sup>Be: 20865 &#177; 3704<br/><br/>
<u>Sample</u><br/>boulder<br/><br/>
<u>Publication</u><br/><a href="http://expage.github.io/data/txt/Rodés-Bolumburu-2008.txt">Rodés Bolumburu (2008)</a>
]]>
</description>
<styleUrl>#boulder</styleUrl>
<Point>
<coordinates>-0.087,43.087</coordinates>
</Point>
</Placemark>
<Placemark>
<name>ECH02</name>
<description>
<![CDATA[
<sup>10</sup>Be: 62546 &#177; 45130<br/><br/>
<u>Sample</u><br/>boulder<br/><br/>
<u>Publication</u><br/><a href="http://expage.github.io/data/txt/Rodés-Bolumburu-2008.txt">Rodés Bolumburu (2008)</a>
]]>
</description>
<styleUrl>#boulder</styleUrl>
<Point>
<coordinates>-0.087,43.087</coordinates>
</Point>
</Placemark>
<Placemark>
<name>ECH03</name>
<description>
<![CDATA[
<sup>10</sup>Be: 18346 &#177; 3572<br/><br/>
<u>Sample</u><br/>boulder<br/><br/>
<u>Publication</u><br/><a href="http://expage.github.io/data/txt/Rodés-Bolumburu-2008.txt">Rodés Bolumburu (2008)</a>
]]>
</description>
<styleUrl>#boulder</styleUrl>
<Point>
<coordinates>-0.087,43.087</coordinates>
</Point>
</Placemark>
<Placemark>
<name>ECH04</name>
<description>
<![CDATA[
<sup>10</sup>Be: 17847 &#177; 3316<br/><br/>
<u>Sample</u><br/>boulder<br/><br/>
<u>Publication</u><br/><a href="http://expage.github.io/data/txt/Rodés-Bolumburu-2008.txt">Rodés Bolumburu (2008)</a>
]]>
</description>
<styleUrl>#boulder</styleUrl>
<Point>
<coordinates>-0.087,43.087</coordinates>
</Point>
</Placemark>
<Placemark>
<name>ECH09</name>
<description>
<![CDATA[
<sup>10</sup>Be: 12476 &#177; 1955<br/><br/>
<u>Sample</u><br/>boulder<br/><br/>
<u>Publication</u><br/><a href="http://expage.github.io/data/txt/Rodés-Bolumburu-2008.txt">Rodés Bolumburu (2008)</a>
]]>
</description>
<styleUrl>#boulder</styleUrl>
<Point>
<coordinates>-0.093,43.076</coordinates>
</Point>
</Placemark>
<Placemark>
<name>ECH10</name>
<description>
<![CDATA[
<sup>10</sup>Be: 4253 &#177; 4406<br/><br/>
<u>Sample</u><br/>boulder<br/><br/>
<u>Publication</u><br/><a href="http://expage.github.io/data/txt/Rodés-Bolumburu-2008.txt">Rodés Bolumburu (2008)</a>
]]>
</description>
<styleUrl>#boulder</styleUrl>
<Point>
<coordinates>-0.093,43.076</coordinates>
</Point>
</Placemark>
<Placemark>
<name>ECH11</name>
<description>
<![CDATA[
<sup>10</sup>Be: 17655 &#177; 3707<br/><br/>
<u>Sample</u><br/>boulder<br/><br/>
<u>Publication</u><br/><a href="http://expage.github.io/data/txt/Rodés-Bolumburu-2008.txt">Rodés Bolumburu (2008)</a>
]]>
</description>
<styleUrl>#boulder</styleUrl>
<Point>
<coordinates>-0.093,43.076</coordinates>
</Point>
</Placemark>
<Placemark>
<name>AUC01</name>
<description>
<![CDATA[
<sup>10</sup>Be: 13313 &#177; 2346<br/><br/>
<u>Sample</u><br/>boulder<br/><br/>
<u>Publication</u><br/><a href="http://expage.github.io/data/txt/Rodés-Bolumburu-2008.txt">Rodés Bolumburu (2008)</a>
]]>
</description>
<styleUrl>#boulder</styleUrl>
<Point>
<coordinates>-0.178,42.976</coordinates>
</Point>
</Placemark>
<Placemark>
<name>AUC02</name>
<description>
<![CDATA[
<sup>10</sup>Be: 15949 &#177; 2969<br/><br/>
<u>Sample</u><br/>boulder<br/><br/>
<u>Publication</u><br/><a href="http://expage.github.io/data/txt/Rodés-Bolumburu-2008.txt">Rodés Bolumburu (2008)</a>
]]>
</description>
<styleUrl>#boulder</styleUrl>
<Point>
<coordinates>-0.178,42.976</coordinates>
</Point>
</Placemark>
<Placemark>
<name>AUC03</name>
<description>
<![CDATA[
<sup>10</sup>Be: 15481 &#177; 3345<br/><br/>
<u>Sample</u><br/>boulder<br/><br/>
<u>Publication</u><br/><a href="http://expage.github.io/data/txt/Rodés-Bolumburu-2008.txt">Rodés Bolumburu (2008)</a>
]]>
</description>
<styleUrl>#boulder</styleUrl>
<Point>
<coordinates>-0.178,42.976</coordinates>
</Point>
</Placemark>
<Placemark>
<name>AUC04</name>
<description>
<![CDATA[
<sup>10</sup>Be: 16358 &#177; 2805<br/><br/>
<u>Sample</u><br/>boulder<br/><br/>
<u>Publication</u><br/><a href="http://expage.github.io/data/txt/Rodés-Bolumburu-2008.txt">Rodés Bolumburu (2008)</a>
]]>
</description>
<styleUrl>#boulder</styleUrl>
<Point>
<coordinates>-0.178,42.976</coordinates>
</Point>
</Placemark>
<Placemark>
<name>FLI01</name>
<description>
<![CDATA[
<sup>10</sup>Be: 18171 &#177; 3244<br/><br/>
<u>Sample</u><br/>boulder<br/><br/>
<u>Publication</u><br/><a href="http://expage.github.io/data/txt/Rodés-Bolumburu-2008.txt">Rodés Bolumburu (2008)</a>
]]>
</description>
<styleUrl>#boulder</styleUrl>
<Point>
<coordinates>-0.233,42.855</coordinates>
</Point>
</Placemark>
<Placemark>
<name>OLI01</name>
<description>
<![CDATA[
<sup>10</sup>Be: 12364 &#177; 3133<br/><br/>
<u>Sample</u><br/>boulder<br/><br/>
<u>Publication</u><br/><a href="http://expage.github.io/data/txt/Rodés-Bolumburu-2008.txt">Rodés Bolumburu (2008)</a>
]]>
</description>
<styleUrl>#boulder</styleUrl>
<Point>
<coordinates>-0.229,42.826</coordinates>
</Point>
</Placemark>
<Placemark>
<name>RLI01</name>
<description>
<![CDATA[
<sup>10</sup>Be: 10118 &#177; 1204<br/><br/>
<u>Sample</u><br/>bedrock<br/><br/>
<u>Publication</u><br/><a href="http://expage.github.io/data/txt/Rodés-Bolumburu-2008.txt">Rodés Bolumburu (2008)</a>
]]>
</description>
<styleUrl>#bedrock</styleUrl>
<Point>
<coordinates>-0.232,42.853</coordinates>
</Point>
</Placemark>
<Placemark>
<name>IHH01</name>
<description>
<![CDATA[
<sup>10</sup>Be: 13685 &#177; 1973<br/><br/>
<u>Sample</u><br/>boulder<br/><br/>
<u>Publication</u><br/><a href="http://expage.github.io/data/txt/Rodés-Bolumburu-2008.txt">Rodés Bolumburu (2008)</a>
]]>
</description>
<styleUrl>#boulder</styleUrl>
<Point>
<coordinates>-0.238,42.840</coordinates>
</Point>
</Placemark>
<Placemark>
<name>IHH02</name>
<description>
<![CDATA[
<sup>10</sup>Be: 8691 &#177; 1275<br/><br/>
<u>Sample</u><br/>boulder<br/><br/>
<u>Publication</u><br/><a href="http://expage.github.io/data/txt/Rodés-Bolumburu-2008.txt">Rodés Bolumburu (2008)</a>
]]>
</description>
<styleUrl>#boulder</styleUrl>
<Point>
<coordinates>-0.238,42.840</coordinates>
</Point>
</Placemark>
</Document>
</kml>