<?xml version="1.0" encoding="UTF-8"?>
<kml xmlns="http://www.opengis.net/kml/2.2">
<Document>
<name>Rodés Bolumburu (2008)</name>
<description>
<![CDATA[
Data from expage-202306<br/><br/>
<a href="http://expage.github.io/">expage.github.io</a>
]]>
</description>
<Style id="bedrock">
<IconStyle>
<color>ff0000ff</color>
<colorMode>normal</colorMode>
<scale>1</scale>
<Icon>
<href>http://maps.google.com/mapfiles/kml/shapes/shaded_dot.png</href>
</Icon>
</IconStyle>
<BalloonStyle>
<text><![CDATA[<b><font size='4'>$[name]</font></b><br/><br/><u>LSD age (yr)</u><br/>$[description]]]></text>
</BalloonStyle>
</Style>
<Style id="boulder">
<IconStyle>
<color>ff00ffff</color>
<colorMode>normal</colorMode>
<scale>1</scale>
<Icon>
<href>http://maps.google.com/mapfiles/kml/shapes/shaded_dot.png</href>
</Icon>
</IconStyle>
<BalloonStyle>
<text><![CDATA[<b><font size='4'>$[name]</font></b><br/><br/><u>LSD age (yr)</u><br/>$[description]]]></text>
</BalloonStyle>
</Style>
<Style id="other">
<IconStyle>
<color>ffff0000</color>
<colorMode>normal</colorMode>
<scale>1</scale>
<Icon>
<href>http://maps.google.com/mapfiles/kml/shapes/shaded_dot.png</href>
</Icon>
</IconStyle>
<BalloonStyle>
<text><![CDATA[<b><font size='4'>$[name]</font></b><br/><br/><u>LSD age (yr)</u><br/>$[description]]]></text>
</BalloonStyle>
</Style>

<Placemark>
<name>ECH01</name>
<description>
<![CDATA[
<sup>10</sup>Be: 20824 &#177; 3740<br/><br/>
<u>Sample</u><br/>boulder<br/><br/>
<u>Publication</u><br/><a href="http://expage.github.io/data/txt/Rodés-Bolumburu-2008.txt">Rodés Bolumburu (2008)</a>
]]>
</description>
<styleUrl>#boulder</styleUrl>
<Point>
<coordinates>-0.087,43.087</coordinates>
</Point>
</Placemark>
<Placemark>
<name>ECH02</name>
<description>
<![CDATA[
<sup>10</sup>Be: 63654 &#177; 45975<br/><br/>
<u>Sample</u><br/>boulder<br/><br/>
<u>Publication</u><br/><a href="http://expage.github.io/data/txt/Rodés-Bolumburu-2008.txt">Rodés Bolumburu (2008)</a>
]]>
</description>
<styleUrl>#boulder</styleUrl>
<Point>
<coordinates>-0.087,43.087</coordinates>
</Point>
</Placemark>
<Placemark>
<name>ECH03</name>
<description>
<![CDATA[
<sup>10</sup>Be: 18308 &#177; 3599<br/><br/>
<u>Sample</u><br/>boulder<br/><br/>
<u>Publication</u><br/><a href="http://expage.github.io/data/txt/Rodés-Bolumburu-2008.txt">Rodés Bolumburu (2008)</a>
]]>
</description>
<styleUrl>#boulder</styleUrl>
<Point>
<coordinates>-0.087,43.087</coordinates>
</Point>
</Placemark>
<Placemark>
<name>ECH04</name>
<description>
<![CDATA[
<sup>10</sup>Be: 17817 &#177; 3345<br/><br/>
<u>Sample</u><br/>boulder<br/><br/>
<u>Publication</u><br/><a href="http://expage.github.io/data/txt/Rodés-Bolumburu-2008.txt">Rodés Bolumburu (2008)</a>
]]>
</description>
<styleUrl>#boulder</styleUrl>
<Point>
<coordinates>-0.087,43.087</coordinates>
</Point>
</Placemark>
<Placemark>
<name>ECH09</name>
<description>
<![CDATA[
<sup>10</sup>Be: 12652 &#177; 2012<br/><br/>
<u>Sample</u><br/>boulder<br/><br/>
<u>Publication</u><br/><a href="http://expage.github.io/data/txt/Rodés-Bolumburu-2008.txt">Rodés Bolumburu (2008)</a>
]]>
</description>
<styleUrl>#boulder</styleUrl>
<Point>
<coordinates>-0.093,43.076</coordinates>
</Point>
</Placemark>
<Placemark>
<name>ECH10</name>
<description>
<![CDATA[
<sup>10</sup>Be: 4206 &#177; 4358<br/><br/>
<u>Sample</u><br/>boulder<br/><br/>
<u>Publication</u><br/><a href="http://expage.github.io/data/txt/Rodés-Bolumburu-2008.txt">Rodés Bolumburu (2008)</a>
]]>
</description>
<styleUrl>#boulder</styleUrl>
<Point>
<coordinates>-0.093,43.076</coordinates>
</Point>
</Placemark>
<Placemark>
<name>ECH11</name>
<description>
<![CDATA[
<sup>10</sup>Be: 17629 &#177; 3732<br/><br/>
<u>Sample</u><br/>boulder<br/><br/>
<u>Publication</u><br/><a href="http://expage.github.io/data/txt/Rodés-Bolumburu-2008.txt">Rodés Bolumburu (2008)</a>
]]>
</description>
<styleUrl>#boulder</styleUrl>
<Point>
<coordinates>-0.093,43.076</coordinates>
</Point>
</Placemark>
<Placemark>
<name>AUC01</name>
<description>
<![CDATA[
<sup>10</sup>Be: 13424 &#177; 2393<br/><br/>
<u>Sample</u><br/>boulder<br/><br/>
<u>Publication</u><br/><a href="http://expage.github.io/data/txt/Rodés-Bolumburu-2008.txt">Rodés Bolumburu (2008)</a>
]]>
</description>
<styleUrl>#boulder</styleUrl>
<Point>
<coordinates>-0.178,42.976</coordinates>
</Point>
</Placemark>
<Placemark>
<name>AUC02</name>
<description>
<![CDATA[
<sup>10</sup>Be: 15967 &#177; 3003<br/><br/>
<u>Sample</u><br/>boulder<br/><br/>
<u>Publication</u><br/><a href="http://expage.github.io/data/txt/Rodés-Bolumburu-2008.txt">Rodés Bolumburu (2008)</a>
]]>
</description>
<styleUrl>#boulder</styleUrl>
<Point>
<coordinates>-0.178,42.976</coordinates>
</Point>
</Placemark>
<Placemark>
<name>AUC03</name>
<description>
<![CDATA[
<sup>10</sup>Be: 15506 &#177; 3377<br/><br/>
<u>Sample</u><br/>boulder<br/><br/>
<u>Publication</u><br/><a href="http://expage.github.io/data/txt/Rodés-Bolumburu-2008.txt">Rodés Bolumburu (2008)</a>
]]>
</description>
<styleUrl>#boulder</styleUrl>
<Point>
<coordinates>-0.178,42.976</coordinates>
</Point>
</Placemark>
<Placemark>
<name>AUC04</name>
<description>
<![CDATA[
<sup>10</sup>Be: 16363 &#177; 2840<br/><br/>
<u>Sample</u><br/>boulder<br/><br/>
<u>Publication</u><br/><a href="http://expage.github.io/data/txt/Rodés-Bolumburu-2008.txt">Rodés Bolumburu (2008)</a>
]]>
</description>
<styleUrl>#boulder</styleUrl>
<Point>
<coordinates>-0.178,42.976</coordinates>
</Point>
</Placemark>
<Placemark>
<name>FLI01</name>
<description>
<![CDATA[
<sup>10</sup>Be: 18142 &#177; 3275<br/><br/>
<u>Sample</u><br/>boulder<br/><br/>
<u>Publication</u><br/><a href="http://expage.github.io/data/txt/Rodés-Bolumburu-2008.txt">Rodés Bolumburu (2008)</a>
]]>
</description>
<styleUrl>#boulder</styleUrl>
<Point>
<coordinates>-0.233,42.855</coordinates>
</Point>
</Placemark>
<Placemark>
<name>OLI01</name>
<description>
<![CDATA[
<sup>10</sup>Be: 12578 &#177; 3205<br/><br/>
<u>Sample</u><br/>boulder<br/><br/>
<u>Publication</u><br/><a href="http://expage.github.io/data/txt/Rodés-Bolumburu-2008.txt">Rodés Bolumburu (2008)</a>
]]>
</description>
<styleUrl>#boulder</styleUrl>
<Point>
<coordinates>-0.229,42.826</coordinates>
</Point>
</Placemark>
<Placemark>
<name>RLI01</name>
<description>
<![CDATA[
<sup>10</sup>Be: 10606 &#177; 1294<br/><br/>
<u>Sample</u><br/>bedrock<br/><br/>
<u>Publication</u><br/><a href="http://expage.github.io/data/txt/Rodés-Bolumburu-2008.txt">Rodés Bolumburu (2008)</a>
]]>
</description>
<styleUrl>#bedrock</styleUrl>
<Point>
<coordinates>-0.232,42.853</coordinates>
</Point>
</Placemark>
<Placemark>
<name>IHH01</name>
<description>
<![CDATA[
<sup>10</sup>Be: 13796 &#177; 2023<br/><br/>
<u>Sample</u><br/>boulder<br/><br/>
<u>Publication</u><br/><a href="http://expage.github.io/data/txt/Rodés-Bolumburu-2008.txt">Rodés Bolumburu (2008)</a>
]]>
</description>
<styleUrl>#boulder</styleUrl>
<Point>
<coordinates>-0.238,42.840</coordinates>
</Point>
</Placemark>
<Placemark>
<name>IHH02</name>
<description>
<![CDATA[
<sup>10</sup>Be: 9399 &#177; 1402<br/><br/>
<u>Sample</u><br/>boulder<br/><br/>
<u>Publication</u><br/><a href="http://expage.github.io/data/txt/Rodés-Bolumburu-2008.txt">Rodés Bolumburu (2008)</a>
]]>
</description>
<styleUrl>#boulder</styleUrl>
<Point>
<coordinates>-0.238,42.840</coordinates>
</Point>
</Placemark>
</Document>
</kml>