<?xml version="1.0" encoding="UTF-8"?>
<kml xmlns="http://www.opengis.net/kml/2.2">
<Document>
<name>Rodés Bolumburu (2008)</name>
<description>
<![CDATA[
Data from expage-201712<br/><br/>
<a href="http://expage.github.io/">expage.github.io</a>
]]>
</description>
<Style id="bedrock">
<IconStyle>
<color>ff0000ff</color>
<colorMode>normal</colorMode>
<scale>1</scale>
<Icon>
<href>http://maps.google.com/mapfiles/kml/shapes/shaded_dot.png</href>
</Icon>
</IconStyle>
<BalloonStyle>
<text><![CDATA[<b><font size='4'>$[name]</font></b><br/><br/><u>LSD age (yr)</u><br/>$[description]]]></text>
</BalloonStyle>
</Style>
<Style id="boulder">
<IconStyle>
<color>ff00ffff</color>
<colorMode>normal</colorMode>
<scale>1</scale>
<Icon>
<href>http://maps.google.com/mapfiles/kml/shapes/shaded_dot.png</href>
</Icon>
</IconStyle>
<BalloonStyle>
<text><![CDATA[<b><font size='4'>$[name]</font></b><br/><br/><u>LSD age (yr)</u><br/>$[description]]]></text>
</BalloonStyle>
</Style>
<Style id="other">
<IconStyle>
<color>ffff0000</color>
<colorMode>normal</colorMode>
<scale>1</scale>
<Icon>
<href>http://maps.google.com/mapfiles/kml/shapes/shaded_dot.png</href>
</Icon>
</IconStyle>
<BalloonStyle>
<text><![CDATA[<b><font size='4'>$[name]</font></b><br/><br/><u>LSD age (yr)</u><br/>$[description]]]></text>
</BalloonStyle>
</Style>

<Placemark>
<name>ECH01</name>
<description>
<![CDATA[
<sup>10</sup>Be: 20814 &#177; 3747<br/><br/>
<u>Sample</u><br/>boulder<br/><br/>
<u>Publication</u><br/>Rodés Bolumburu (2008)
]]>
</description>
<styleUrl>#boulder</styleUrl>
<Point>
<coordinates>-0.087,43.087</coordinates>
</Point>
</Placemark>
<Placemark>
<name>ECH02</name>
<description>
<![CDATA[
<sup>10</sup>Be: 62383 &#177; 45049<br/><br/>
<u>Sample</u><br/>boulder<br/><br/>
<u>Publication</u><br/>Rodés Bolumburu (2008)
]]>
</description>
<styleUrl>#boulder</styleUrl>
<Point>
<coordinates>-0.087,43.087</coordinates>
</Point>
</Placemark>
<Placemark>
<name>ECH03</name>
<description>
<![CDATA[
<sup>10</sup>Be: 18299 &#177; 3604<br/><br/>
<u>Sample</u><br/>boulder<br/><br/>
<u>Publication</u><br/>Rodés Bolumburu (2008)
]]>
</description>
<styleUrl>#boulder</styleUrl>
<Point>
<coordinates>-0.087,43.087</coordinates>
</Point>
</Placemark>
<Placemark>
<name>ECH04</name>
<description>
<![CDATA[
<sup>10</sup>Be: 17801 &#177; 3349<br/><br/>
<u>Sample</u><br/>boulder<br/><br/>
<u>Publication</u><br/>Rodés Bolumburu (2008)
]]>
</description>
<styleUrl>#boulder</styleUrl>
<Point>
<coordinates>-0.087,43.087</coordinates>
</Point>
</Placemark>
<Placemark>
<name>ECH09</name>
<description>
<![CDATA[
<sup>10</sup>Be: 12443 &#177; 1985<br/><br/>
<u>Sample</u><br/>boulder<br/><br/>
<u>Publication</u><br/>Rodés Bolumburu (2008)
]]>
</description>
<styleUrl>#boulder</styleUrl>
<Point>
<coordinates>-0.093,43.076</coordinates>
</Point>
</Placemark>
<Placemark>
<name>ECH10</name>
<description>
<![CDATA[
<sup>10</sup>Be: 4242 &#177; 4397<br/><br/>
<u>Sample</u><br/>boulder<br/><br/>
<u>Publication</u><br/>Rodés Bolumburu (2008)
]]>
</description>
<styleUrl>#boulder</styleUrl>
<Point>
<coordinates>-0.093,43.076</coordinates>
</Point>
</Placemark>
<Placemark>
<name>ECH11</name>
<description>
<![CDATA[
<sup>10</sup>Be: 17610 &#177; 3734<br/><br/>
<u>Sample</u><br/>boulder<br/><br/>
<u>Publication</u><br/>Rodés Bolumburu (2008)
]]>
</description>
<styleUrl>#boulder</styleUrl>
<Point>
<coordinates>-0.093,43.076</coordinates>
</Point>
</Placemark>
<Placemark>
<name>AUC01</name>
<description>
<![CDATA[
<sup>10</sup>Be: 13279 &#177; 2373<br/><br/>
<u>Sample</u><br/>boulder<br/><br/>
<u>Publication</u><br/>Rodés Bolumburu (2008)
]]>
</description>
<styleUrl>#boulder</styleUrl>
<Point>
<coordinates>-0.178,42.976</coordinates>
</Point>
</Placemark>
<Placemark>
<name>AUC02</name>
<description>
<![CDATA[
<sup>10</sup>Be: 15908 &#177; 2999<br/><br/>
<u>Sample</u><br/>boulder<br/><br/>
<u>Publication</u><br/>Rodés Bolumburu (2008)
]]>
</description>
<styleUrl>#boulder</styleUrl>
<Point>
<coordinates>-0.178,42.976</coordinates>
</Point>
</Placemark>
<Placemark>
<name>AUC03</name>
<description>
<![CDATA[
<sup>10</sup>Be: 15442 &#177; 3368<br/><br/>
<u>Sample</u><br/>boulder<br/><br/>
<u>Publication</u><br/>Rodés Bolumburu (2008)
]]>
</description>
<styleUrl>#boulder</styleUrl>
<Point>
<coordinates>-0.178,42.976</coordinates>
</Point>
</Placemark>
<Placemark>
<name>AUC04</name>
<description>
<![CDATA[
<sup>10</sup>Be: 16316 &#177; 2839<br/><br/>
<u>Sample</u><br/>boulder<br/><br/>
<u>Publication</u><br/>Rodés Bolumburu (2008)
]]>
</description>
<styleUrl>#boulder</styleUrl>
<Point>
<coordinates>-0.178,42.976</coordinates>
</Point>
</Placemark>
<Placemark>
<name>FLI01</name>
<description>
<![CDATA[
<sup>10</sup>Be: 18127 &#177; 3280<br/><br/>
<u>Sample</u><br/>boulder<br/><br/>
<u>Publication</u><br/>Rodés Bolumburu (2008)
]]>
</description>
<styleUrl>#boulder</styleUrl>
<Point>
<coordinates>-0.233,42.855</coordinates>
</Point>
</Placemark>
<Placemark>
<name>OLI01</name>
<description>
<![CDATA[
<sup>10</sup>Be: 12334 &#177; 3147<br/><br/>
<u>Sample</u><br/>boulder<br/><br/>
<u>Publication</u><br/>Rodés Bolumburu (2008)
]]>
</description>
<styleUrl>#boulder</styleUrl>
<Point>
<coordinates>-0.229,42.826</coordinates>
</Point>
</Placemark>
<Placemark>
<name>RLI01</name>
<description>
<![CDATA[
<sup>10</sup>Be: 10093 &#177; 1238<br/><br/>
<u>Sample</u><br/>bedrock<br/><br/>
<u>Publication</u><br/>Rodés Bolumburu (2008)
]]>
</description>
<styleUrl>#bedrock</styleUrl>
<Point>
<coordinates>-0.232,42.853</coordinates>
</Point>
</Placemark>
<Placemark>
<name>IHH01</name>
<description>
<![CDATA[
<sup>10</sup>Be: 13651 &#177; 2009<br/><br/>
<u>Sample</u><br/>boulder<br/><br/>
<u>Publication</u><br/>Rodés Bolumburu (2008)
]]>
</description>
<styleUrl>#boulder</styleUrl>
<Point>
<coordinates>-0.238,42.840</coordinates>
</Point>
</Placemark>
<Placemark>
<name>IHH02</name>
<description>
<![CDATA[
<sup>10</sup>Be: 8667 &#177; 1297<br/><br/>
<u>Sample</u><br/>boulder<br/><br/>
<u>Publication</u><br/>Rodés Bolumburu (2008)
]]>
</description>
<styleUrl>#boulder</styleUrl>
<Point>
<coordinates>-0.238,42.840</coordinates>
</Point>
</Placemark>
</Document>
</kml>